[
  {
    "address": "Москва улица Семеновская большая 23",
    "longitude": 37.707396,
    "latitude": 55.782525
  },
  {
    "address": "Москва улица Бахрушина 13",
    "longitude": 37.6357677,
    "latitude": 55.7354299
  },
  {
    "address": "Москва улица Дубнинская 40к1",
    "longitude": 37.5671375,
    "latitude": 55.8627701
  },
  {
    "address": "Москва проезд Игарский 8",
    "longitude": 37.6437697,
    "latitude": 55.858035
  },
  {
    "address": "Москва улица Полярная 2",
    "longitude": 37.6385825216506,
    "latitude": 55.8718556
  },
  {
    "address": "Москва улица Полярная 31к1",
    "longitude": 37.6371699,
    "latitude": 55.8751474
  },
  {
    "address": "Москва улица Бажова 6",
    "longitude": 37.6604691,
    "latitude": 55.8315185
  },
  {
    "address": "Москва улица Алексея Дикого 3",
    "longitude": 37.80772773076792,
    "latitude": 55.7490247
  },
  {
    "address": "Москва кв-л. Волжский Бульвар 95-й к2",
    "longitude": 37.747855,
    "latitude": 55.710920
  },
  {
    "address": "Москва проезд Завода Серп и Молот 10",
    "longitude": 37.7027213,
    "latitude": 55.7525844
  },
  {
    "address": "Москва улица Маресьева 1",
    "longitude": 37.9302476,
    "latitude": 55.7074566
  },
  {
    "address": "Москва переулок Крутицкий 3-й 11",
    "longitude": 37.6601794,
    "latitude": 55.7304654
  },
  {
    "address": "Москва улица Медиков 1/к3",
    "longitude": 37.67512247988887,
    "latitude": 55.63575535
  },
  {
    "address": "Москва улица Горчакова 11",
    "longitude": 37.5322596,
    "latitude": 55.5437029
  },
  {
    "address": "Москва улица Академика Варги 26",
    "longitude": 37.47357146231506,
    "latitude": 55.634431899999996
  },
  {
    "address": "Москва улица Гарибальди 6к1",
    "longitude": 37.5364291,
    "latitude": 55.6761537
  },
  {
    "address": "Москва улица Вавилова 81к1",
    "longitude": 37.5463971,
    "latitude": 55.6796939
  },
  {
    "address": "Москва шоссе Рублёвское 42к1",
    "longitude": 37.412558608543875,
    "latitude": 55.75090845
  },
  {
    "address": "Москва улица Кременчугская 9",
    "longitude": 37.4633581,
    "latitude": 55.7204092
  },
  {
    "address": "Москва улица Новозаводская 25к1",
    "longitude": 37.5006858,
    "latitude": 55.7522728
  },
  {
    "address": "Москва бульвар Энтузиастов 2",
    "longitude": 37.6833677,
    "latitude": 55.7465554
  },
  {
    "address": "Москва проезд Гостиничный 6",
    "longitude": 37.5773039,
    "latitude": 55.8441565
  },
  {
    "address": "Москва улица 9 Мая 12",
    "longitude": 37.8657771,
    "latitude": 55.8166752
  },
  {
    "address": "Москва бульвар Жулебинский 25",
    "longitude": 37.85217510792711,
    "latitude": 55.6898727
  },
  {
    "address": "Москва проспект Маршала Жукова 35к1",
    "longitude": 37.4735071,
    "latitude": 55.7750403
  },
  {
    "address": "Москва улица Домостроительная 2",
    "longitude": 37.426049863015876,
    "latitude": 55.66587015
  },
  {
    "address": "Москва Зеленоград к33",
    "longitude": 37.198534,
    "latitude": 55.9964233
  },
  {
    "address": "Москва проезд Донской 5-й 15к8",
    "longitude": 37.5981603,
    "latitude": 55.7072585
  },
  {
    "address": "Москва улица Салтыковская 29",
    "longitude": 37.873166287261384,
    "latitude": 55.740653449999996
  },
  {
    "address": "Москва шоссе Варшавское 47к4",
    "longitude": 37.63015710077565,
    "latitude": 55.67916545
  },
  {
    "address": "Москва переулок Чапаевский 16",
    "longitude": 37.5183491,
    "latitude": 55.7971422
  },
  {
    "address": "Москва улица Парковая 15-я 40",
    "longitude": 37.3584486,
    "latitude": 55.6591559
  },
  {
    "address": "Москва проезд Востряковский 22",
    "longitude": 37.6569259,
    "latitude": 55.5746976
  },
  {
    "address": "Москва улица Владимирская 3-я 9",
    "longitude": 37.7884372,
    "latitude": 55.7606891
  },
  {
    "address": "Москва улица Борисовские Пруды 18к3",
    "longitude": 37.7523647,
    "latitude": 55.6359721
  },
  {
    "address": "Москва переулок Сивцев Вражек 20",
    "longitude": 37.594340695960895,
    "latitude": 55.7479528
  },
  {
    "address": "Москва улица Загорьевская 10к4",
    "longitude": 37.6766936,
    "latitude": 55.5781327
  },
  {
    "address": "Москва улица Викторенко 2/",
    "longitude": 37.5288674,
    "latitude": 55.7994119
  },
  {
    "address": "Москва улица Люблинская 53",
    "longitude": 37.7372502,
    "latitude": 55.6895295
  },
  {
    "address": "Москва улица Новопеределкинская 12",
    "longitude": 37.36661324999999,
    "latitude": 55.641777399999995
  },
  {
    "address": "Москва улица Черкизовская малая 14",
    "longitude": 37.7157429,
    "latitude": 55.8022267
  },
  {
    "address": "Москва 2-й квартал Капотня 22",
    "longitude": 37.8008364,
    "latitude": 55.6382073
  },
  {
    "address": "Москва улица Куусинена 19к2",
    "longitude": 37.5120346,
    "latitude": 55.7870042
  },
  {
    "address": "Москва улица Ангарская 1к3",
    "longitude": 37.5093955,
    "latitude": 55.8726049
  },
  {
    "address": "Москва улица Бутырская 17",
    "longitude": 37.58330538233433,
    "latitude": 55.7983363
  },
  {
    "address": "Москва улица Лобненская 4",
    "longitude": 37.53919885300698,
    "latitude": 55.890502850000004
  },
  {
    "address": "Москва улица Абрамцевская 3",
    "longitude": 37.5735422,
    "latitude": 55.8955966
  },
  {
    "address": "Москва шоссе Челобитьевское 12к16",
    "longitude": 37.548348,
    "latitude": 55.912627
  },
  {
    "address": "Москва проспект Измайловский 93к1",
    "longitude": 37.8094508,
    "latitude": 55.7890276
  },
  {
    "address": "Москва улица Россошанская 4к2",
    "longitude": 37.609437456941926,
    "latitude": 55.592793
  },
  {
    "address": "Москва улица Василия Петушкова 13корп.",
    "longitude": 37.4017082,
    "latitude": 55.83779045
  },
  {
    "address": "Москва шоссе Ярославское 116к1",
    "longitude": 37.7090181,
    "latitude": 55.866967
  },
  {
    "address": "Москва улица Красносельская Верхняя 3к2",
    "longitude": 37.6604805,
    "latitude": 55.7857704
  },
  {
    "address": "Москва улица Нагатинская 27",
    "longitude": 37.6549438,
    "latitude": 55.6781332
  },
  {
    "address": "Москва улица Правды 33",
    "longitude": 37.5828621,
    "latitude": 55.7896776
  },
  {
    "address": "Москва улица Тимирязевская 8к1",
    "longitude": 37.5709762,
    "latitude": 55.8105409
  },
  {
    "address": "Москва улица Новочеремушкинская 23к5",
    "longitude": 37.5799879,
    "latitude": 55.6807527
  },
  {
    "address": "Москва шоссе Каширское 144к3",
    "longitude": 37.7213135,
    "latitude": 55.5964657
  },
  {
    "address": "Москва проезд Новотушинский 10",
    "longitude": 37.3785943,
    "latitude": 55.8390969
  },
  {
    "address": "Москва Зеленоград к828 ",
    "longitude": 37.1816932,
    "latitude": 55.9810185
  },
  {
    "address": "Москва бульвар Смоленский 24 с1",
    "longitude": 37.5846651,
    "latitude": 55.7429908
  },
  {
    "address": "Москва бульвар Строгинский 28",
    "longitude": 37.4043074,
    "latitude": 55.8027163
  },
  {
    "address": "Москва улица Новокузьминская 1-я 10",
    "longitude": 37.7891769,
    "latitude": 55.7149042
  },
  {
    "address": "Москва переулок Центросоюзный 13к3",
    "longitude": 37.6873159,
    "latitude": 55.7804637
  },
  {
    "address": "Москва переулок Слесарный 5",
    "longitude": 37.6369581,
    "latitude": 55.784502
  },
  {
    "address": "Москва бульвар Волжский 41к3",
    "longitude": 37.7557038,
    "latitude": 55.6984369
  },
  {
    "address": "Москва улица Ясеневая 8",
    "longitude": 37.71779722438336,
    "latitude": 55.5995803
  },
  {
    "address": "Москва проспект Нахимовский 25",
    "longitude": 37.5901309,
    "latitude": 55.6679292
  },
  {
    "address": "Москва улица Летчика Бабушкина 1к1",
    "longitude": 37.6699849,
    "latitude": 55.8560914
  },
  {
    "address": "Москва проспект Мичуринский 31",
    "longitude": 37.497878549999996,
    "latitude": 55.6960458
  },
  {
    "address": "Москва улица Изумрудная 18",
    "longitude": 37.20930140000001,
    "latitude": 55.62884135
  },
  {
    "address": "Москва переулок Очаковский 2-й 6",
    "longitude": 37.4591965,
    "latitude": 55.6831631
  },
  {
    "address": "Москва улица Бориса Галушкина 19к3",
    "longitude": 37.664099528565146,
    "latitude": 55.822494649999996
  },
  {
    "address": "Москва шоссе Алтуфьевское 56",
    "longitude": 37.5875308,
    "latitude": 55.8808545
  },
  {
    "address": "Москва шоссе Ленинградское 108",
    "longitude": 37.4675129,
    "latitude": 55.8605337
  },
  {
    "address": "Москва шоссе Новокуркинское 1",
    "longitude": 37.4071223,
    "latitude": 55.8850849
  },
  {
    "address": "Москва проезд Марьиной Рощи 17-й 4к1",
    "longitude": 37.6121153,
    "latitude": 55.8093235
  },
  {
    "address": "Москва улица Хавская 26",
    "longitude": 37.6130602,
    "latitude": 55.712912
  },
  {
    "address": "Москва улица Космонавта Волкова 10к1",
    "longitude": 37.5051095,
    "latitude": 55.8151463
  },
  {
    "address": "Москва Московский Московский микрорайон 3-й 21",
    "longitude": 37.34377541280687,
    "latitude": 55.59568015
  },
  {
    "address": "Москва шоссе Варшавское 128к2",
    "longitude": 37.6117777,
    "latitude": 55.6230907
  },
  {
    "address": "Москва улица Новочеремушкинская 55к2",
    "longitude": 37.5698492,
    "latitude": 55.6706632
  },
  {
    "address": "Москва улица Маршала Василевского 15",
    "longitude": 37.4638273,
    "latitude": 55.807947
  },
  {
    "address": "Москва улица Тушинская 17",
    "longitude": 37.4452943,
    "latitude": 55.8266395
  },
  {
    "address": "Москва улица Удальцова 14к1",
    "longitude": 37.51208227764364,
    "latitude": 55.676204549999994
  },
  {
    "address": "Москва улица Маршала Неделина 40",
    "longitude": 37.4226983,
    "latitude": 55.7260639
  },
  {
    "address": "Москва улица Одесская 21/2",
    "longitude": 37.5885317,
    "latitude": 55.6536154
  },
  {
    "address": "Москва улица Милашенкова 14",
    "longitude": 37.5801863,
    "latitude": 55.8285291
  },
  {
    "address": "Москва Зеленоград к1105 ",
    "longitude": 37.187656615127274,
    "latitude": 55.9951841
  },
  {
    "address": "Москва улица Вешняковская 17",
    "longitude": 37.835093596840665,
    "latitude": 55.7345778
  },
  {
    "address": "Москва Зеленоград к128",
    "longitude": 37.2076311,
    "latitude": 56.0036329
  },
  {
    "address": "Москва улица Мелиховская 4",
    "longitude": 37.6057084,
    "latitude": 55.899199100000004
  },
  {
    "address": "Москва шоссе Щелковское 27",
    "longitude": 38.10882790070484,
    "latitude": 55.9155676
  },
  {
    "address": "Москва улица Мусы Джалиля 21",
    "longitude": 37.74412497588658,
    "latitude": 55.62287335
  },
  {
    "address": "Москва проспект Новоясеневский 9",
    "longitude": 37.5365791,
    "latitude": 55.6089841
  },
  {
    "address": "Москва улица Декабрьская большая 13",
    "longitude": 37.55495002430776,
    "latitude": 55.767197100000004
  },
  {
    "address": "Москва улица Куликовская 6",
    "longitude": 37.5652414,
    "latitude": 55.5742979
  },
  {
    "address": "Москва проспект Ленинский 103",
    "longitude": 37.514271,
    "latitude": 55.66515
  },
  {
    "address": "Москва переулок Якиманский 6к1",
    "longitude": 37.6110485,
    "latitude": 55.7330921
  },
  {
    "address": "Москва шоссе Открытое 8",
    "longitude": 37.73496890486243,
    "latitude": 55.8154718
  },
  {
    "address": "Москва переулок Настасьинский 7",
    "longitude": 37.6048065,
    "latitude": 55.7677681
  },
  {
    "address": "Москва пл. Киевского Вокзала 2",
    "longitude": 37.565506,
    "latitude": 55.7447266
  },
  {
    "address": "Москва улица Стромынка 2",
    "longitude": 37.68310890000001,
    "latitude": 55.78958245
  },
  {
    "address": "Москва шоссе Головинское 5к1",
    "longitude": 37.4915126,
    "latitude": 55.8400817
  },
  {
    "address": "Москва Троицк улица 1-я Лазурная 4",
    "longitude": 37.321738573105335,
    "latitude": 55.495964900000004
  },
  {
    "address": "Москва набережная Пресненская 2",
    "longitude": 37.5419392060036,
    "latitude": 55.748519200000004
  },
  {
    "address": "Москва улица Ташкентская 21",
    "longitude": 37.81377107194557,
    "latitude": 55.70110765
  },
  {
    "address": "Москва улица Маршала Савицкого 28",
    "longitude": 37.5976219,
    "latitude": 55.5044034
  },
  {
    "address": "Москва проспект Новоясеневский 1",
    "longitude": 37.5092178,
    "latitude": 55.6192542
  },
  {
    "address": "Москва проспект Мира 119к71",
    "longitude": 37.63428045313084,
    "latitude": 55.8299508
  },
  {
    "address": "Москва Внуково улица Центральная 8",
    "longitude": 37.2869852,
    "latitude": 55.6046272
  },
  {
    "address": "Москва улица Святоозерская 12",
    "longitude": 37.8867509828877,
    "latitude": 55.7137163
  },
  {
    "address": "Москва Сосенское Коммунарка улица Александры Монаховой 23",
    "longitude": 37.4797285,
    "latitude": 55.569215
  },
  {
    "address": "Москва улица Кировоградская 13",
    "longitude": 37.6057914,
    "latitude": 55.6116695
  },
  {
    "address": "Москва Первомайское Птичное улица Центральная 100",
    "longitude": 37.227713,
    "latitude": 55.5344569
  },
  {
    "address": "Москва шоссе Щёлковское 75",
    "longitude": 37.8011497,
    "latitude": 55.8111311
  },
  {
    "address": "Москва Щербинка улица Новостроевская 6",
    "longitude": 37.559469,
    "latitude": 55.5048392
  },
  {
    "address": "Москва улица Михалковская 4",
    "longitude": 37.5380382,
    "latitude": 55.8373413
  },
  {
    "address": "Москва проспект Рязанский 2к3",
    "longitude": 37.7347702,
    "latitude": 55.7293832
  },
  {
    "address": "Москва улица Парковая 3-я 24",
    "longitude": 37.3584486,
    "latitude": 55.6591559
  },
  {
    "address": "Москва Зеленоград пл. Привокзальная 1",
    "longitude": 37.173486,
    "latitude": 55.9800945
  },
  {
    "address": "Москва шоссе Ленинградское 16к1",
    "longitude": 37.4458473,
    "latitude": 55.8812099
  },
  {
    "address": "Москва проезд Россошанский 4",
    "longitude": 37.60550874691495,
    "latitude": 55.598004450000005
  },
  {
    "address": "Москва улица Покрышкина 4",
    "longitude": 37.4813873,
    "latitude": 55.6651996
  },
  {
    "address": "Москва улица Декабристов 12",
    "longitude": 37.6012309,
    "latitude": 55.8628727
  },
  {
    "address": "Москва улица Дыбенко 7/к1",
    "longitude": 37.4828303,
    "latitude": 55.8743058
  },
  {
    "address": "Москва улица Люблинская 100",
    "longitude": 37.739052,
    "latitude": 55.654635
  },
  {
    "address": "Москва улица Сходненская 56",
    "longitude": 37.4456887,
    "latitude": 55.8506281
  },
  {
    "address": "Москва улица Миклухо-Маклая 18к2",
    "longitude": 37.5198587,
    "latitude": 55.6448634
  }
]
